,City,Cloudiness,Country,Date,Humidity,Latitude,Longitude,Temp,Wind Speed
0,Luwuk,68,ID,1547949612,91,-0.95,122.79,82.49,3.6
1,Nikolskoye,40,RU,1547947800,92,59.7,30.79,24.8,6.71
2,Atuona,56,PF,1547949613,100,-9.8,-139.03,78.8,14.9
3,Hobart,75,AU,1547947800,31,-42.88,147.33,78.8,12.75
4,Alofi,92,NU,1547946000,83,-19.06,-169.92,84.2,8.05
5,Bethel,90,US,1547947680,76,60.79,-161.76,13.05,4.7
6,Khatanga,68,RU,1547949617,74,71.98,102.47,-11.34,7.96
7,Bredasdorp,12,ZA,1547946000,76,-34.53,20.04,51.8,2.24
8,Ngunguru,92,NZ,1547949618,84,-35.62,174.5,75.51,8.52
9,Barrow,0,AR,1547949619,62,-38.31,-60.23,67.46,14.23
10,Nemuro,75,JP,1547946000,67,43.32,145.57,23.0,4.7
11,Pinkafeld,90,AT,1547947200,86,47.37,16.12,28.4,2.24
12,Rikitea,92,PF,1547949496,100,-23.12,-134.97,80.15,11.21
13,Mataura,92,NZ,1547949621,95,-46.19,168.86,55.31,25.3
14,Krasnodon,24,UA,1547949621,62,48.31,39.72,4.37,3.49
15,Busselton,0,AU,1547949622,66,-33.64,115.35,82.26,4.61
16,Arraial do Cabo,32,BR,1547949623,91,-22.97,-42.02,76.91,14.45
17,Sensuntepeque,0,SV,1547945400,83,13.88,-88.63,74.34,8.05
18,Norman Wells,40,CA,1547946000,70,65.28,-126.83,-5.81,4.7
19,Castro,0,CL,1547946000,82,-42.48,-73.76,59.0,5.82
20,Adrar,0,DZ,1547946000,33,27.87,-0.29,44.6,4.7
21,Kapaa,20,US,1547945760,64,22.08,-159.32,79.57,13.87
22,Bathurst,8,AU,1547949626,58,-33.42,149.58,85.37,2.71
23,Gwadar,32,PK,1547949626,100,25.12,62.33,65.93,1.25
24,Shache,92,CN,1547949626,91,38.42,77.24,20.84,4.27
25,Amahai,76,ID,1547949508,99,-3.31,129.0,84.47,8.97
26,Hofn,0,IS,1547949627,100,64.25,-15.21,37.13,15.68
27,Erzincan,0,TR,1547945400,92,39.75,39.49,8.6,1.92
28,Natal,40,BR,1547946000,78,-5.81,-35.21,82.4,11.41
29,Northam,88,GB,1547945400,93,51.04,-4.21,42.8,4.7
30,Port Alfred,92,ZA,1547949629,100,-33.59,26.89,61.56,5.61
31,Albany,90,US,1547949120,72,42.65,-73.75,14.92,9.17
32,Flinders,90,AU,1547946000,69,-34.58,150.85,73.4,4.7
33,Omsukchan,76,RU,1547949630,74,62.53,155.8,-26.42,3.6
34,Cabo San Lucas,5,MX,1547944920,47,22.89,-109.91,74.21,5.82
35,New Norfolk,75,AU,1547947800,31,-42.78,147.06,78.8,12.75
36,Saldanha,36,PT,1547949630,96,41.42,-6.55,40.23,5.17
37,Puerto Ayora,92,EC,1547949631,100,-0.74,-90.35,77.27,7.63
38,Faanui,32,PF,1547949630,100,-16.48,-151.75,83.79,11.54
39,Pevek,44,RU,1547949631,100,69.7,170.27,-22.46,6.51
40,Ocampo,92,PH,1547949632,100,13.56,123.37,75.2,17.02
41,Padang,40,ID,1547947800,94,-0.92,100.36,78.8,2.24
42,Punta Arenas,40,CL,1547946000,43,-53.16,-70.91,51.8,31.09
43,Thompson,5,CA,1547946000,67,55.74,-97.86,-27.41,3.36
44,Sarangani,8,PH,1547949633,95,5.4,125.46,81.95,20.49
45,Cape Town,0,ZA,1547946000,63,-33.93,18.42,60.8,17.22
46,Kiruna,0,SE,1547947200,92,67.86,20.23,12.2,1.12
47,Ushuaia,40,AR,1547946000,57,-54.81,-68.31,48.2,29.97
48,Ampanihy,12,MG,1547949634,92,-24.69,44.75,71.69,3.49
49,Mitsamiouli,100,KM,1547949634,95,-11.38,43.28,83.39,15.23
50,Taoudenni,0,ML,1547949635,41,22.68,-3.98,36.59,3.6
51,Bluff,0,AU,1547949496,38,-23.58,149.07,92.34,12.66
52,Santiago,0,CL,1547946000,56,-33.44,-70.65,69.8,11.41
53,Saint George,75,GR,1547949000,93,39.45,22.34,43.99,2.59
54,Tura,0,IN,1547949636,90,25.52,90.21,61.7,3.49
55,Kishapu,24,TZ,1547949636,96,-3.61,33.87,61.97,3.38
56,Yellowknife,75,CA,1547946000,69,62.45,-114.38,-7.61,14.99
57,Kangaatsiaq,32,GL,1547949637,100,68.31,-53.46,4.46,16.24
58,Makaha,40,US,1547945820,56,21.47,-158.22,79.68,9.17
59,Andros Town,40,BS,1547946000,83,24.73,-77.79,69.8,5.82
60,Esperance,20,TT,1547946000,83,10.24,-61.45,77.0,4.7
61,Nome,1,US,1547949300,59,30.04,-94.42,42.87,17.22
62,Kaiyuan,0,CN,1547949639,39,42.54,124.04,14.49,6.4
63,Churachandpur,0,IN,1547949639,68,24.33,93.67,58.28,2.04
64,Waddan,92,LY,1547949640,87,29.16,16.14,52.88,4.72
65,Port Blair,40,IN,1547946000,88,11.67,92.75,77.0,3.36
66,Dingle,80,PH,1547949640,100,11.0,122.67,75.56,8.75
67,Jamestown,0,AU,1547949371,82,-33.21,138.6,70.56,5.17
68,Chokurdakh,12,RU,1547949641,0,70.62,147.9,-42.62,2.71
69,Los Llanos de Aridane,32,ES,1547947800,67,28.66,-17.92,62.6,9.17
70,Najran,5,SA,1547946000,46,17.54,44.22,50.0,1.59
71,Dno,80,RU,1547949642,87,57.83,29.97,28.89,11.21
72,Cocobeach,75,GA,1547947800,88,1.01,9.58,78.8,12.75
73,Talnakh,56,RU,1547949643,76,69.49,88.39,-0.81,13.44
74,Severodvinsk,90,RU,1547947800,84,64.56,39.82,1.4,6.71
75,Ambon,90,FR,1547947800,93,47.55,-2.56,40.95,5.82
76,Burayevo,88,RU,1547949644,91,55.84,55.41,23.04,7.18
77,Crotone,0,IT,1547945700,100,39.09,17.12,32.0,9.17
78,Sioux Lookout,5,CA,1547946000,74,50.1,-91.92,-19.84,4.7
79,Adelaide,0,AU,1547947800,33,-34.93,138.6,77.0,9.17
80,Djambala,56,CG,1547949645,91,-2.55,14.76,70.34,6.85
81,La Palma,12,CO,1547949646,87,5.36,-74.39,67.59,1.92
82,Shirokiy,48,RU,1547949646,91,53.87,39.17,22.14,11.21
83,Pacific Grove,1,US,1547946900,64,36.62,-121.92,62.26,1.81
84,Sola,90,FI,1547947200,83,62.78,29.36,-7.61,2.24
85,Capao da Canoa,88,BR,1547949617,100,-29.75,-50.01,74.84,19.37
86,Port Elizabeth,90,US,1547949240,82,39.31,-74.98,40.05,16.11
87,Kaitangata,76,NZ,1547949647,85,-46.28,169.85,59.36,35.03
88,Ilhabela,36,BR,1547949477,98,-23.78,-45.36,81.63,4.38
89,Twin Falls,75,US,1547945580,76,42.57,-114.46,39.94,12.75
90,Kedrovyy,0,RU,1547947800,72,56.17,91.82,14.0,7.52
91,Chuy,0,UY,1547949615,85,-33.69,-53.46,65.21,11.88
92,Karratha,0,AU,1547949648,27,-20.74,116.85,102.11,6.73
93,Mahebourg,75,MU,1547946000,88,-20.41,57.7,77.0,3.36
94,Poum,92,MK,1547949649,100,41.28,20.71,33.48,2.04
95,Gasa,0,BT,1547949649,40,27.91,89.73,-6.35,1.92
96,Limoeiro de Anadia,88,BR,1547949650,98,-9.74,-36.5,72.05,5.61
97,Chapais,1,CA,1547946000,73,49.78,-74.86,-32.81,2.24
98,Hilo,40,US,1547945580,64,19.71,-155.08,78.98,8.05
99,Qaanaaq,0,GL,1547949650,100,77.48,-69.36,-26.15,11.77
100,Codrington,75,AU,1547946000,62,-28.95,153.24,86.59,10.29
101,Katsuura,75,JP,1547947800,100,33.93,134.5,44.78,8.05
102,Butaritari,80,KI,1547949651,100,3.07,172.79,83.48,13.0
103,Palu,12,ID,1547949652,71,-0.9,119.87,78.93,1.92
104,Nara,75,JP,1547947800,87,34.68,135.8,43.7,3.36
105,Comodoro Rivadavia,0,AR,1547946000,17,-45.87,-67.48,84.2,17.22
106,Betanzos,92,ES,1547947800,76,43.28,-8.21,47.08,11.41
107,Poso,8,ID,1547949653,100,-1.4,120.75,82.58,5.28
108,Kodiak,1,US,1547948100,51,39.95,-94.76,10.36,8.05
109,Wick,90,GB,1547947200,100,51.45,-2.43,40.01,8.05
110,Nhulunbuy,75,AU,1547947800,66,-12.18,136.78,89.6,12.75
111,Saint-Philippe,90,CA,1547948100,76,45.36,-73.48,-8.59,16.11
112,Reichenbach,24,DE,1547949000,92,50.62,12.3,15.8,3.15
113,Avera,90,US,1547948100,63,33.19,-82.53,65.07,12.75
114,Ixtapa,40,MX,1547945100,83,20.71,-105.21,77.0,6.93
115,Faya,0,SA,1547946000,87,18.39,42.45,51.8,8.05
116,Dalvik,68,SE,1547947200,92,57.79,14.13,32.0,5.82
117,Hermanus,8,ZA,1547949660,96,-34.42,19.24,45.09,4.5
118,Champerico,20,MX,1547944800,57,16.38,-93.6,80.6,12.75
119,Qasigiannguit,76,GL,1547945400,84,68.82,-51.19,3.2,17.22
120,Murdochville,44,CA,1547949661,73,48.96,-65.49,-6.44,7.18
121,Vaini,0,IN,1547946000,63,15.34,74.49,60.8,2.24
122,Dikson,64,RU,1547949662,100,73.51,80.55,6.62,10.98
123,Starotitarovskaya,36,RU,1547947800,100,45.22,37.15,35.6,8.95
124,Saskylakh,64,RU,1547949663,64,71.97,114.09,-22.1,11.99
125,Maragogi,92,BR,1547949505,100,-9.01,-35.22,76.1,3.38
126,Ribeira Grande,76,PT,1547949664,100,38.52,-28.7,61.97,3.94
127,Marienburg,0,DE,1547949000,100,52.12,9.98,24.85,6.93
128,Camacha,75,PT,1547946000,87,33.08,-16.33,59.74,13.87
129,Port Hedland,0,AU,1547947800,66,-20.31,118.58,91.4,10.29
130,Kuala Terengganu,75,MY,1547946000,83,5.33,103.14,82.4,4.7
131,Hasaki,40,JP,1547947800,42,35.73,140.83,46.0,3.36
132,Plymouth,32,GB,1547949596,100,50.37,-4.14,39.29,5.84
133,Moose Jaw,90,CA,1547948760,84,50.4,-105.54,1.4,21.92
134,Cidreira,100,BR,1547949389,94,-30.17,-50.22,69.98,11.54
135,Pisco,0,PE,1547946000,88,-13.71,-76.2,71.6,11.41
136,Ancud,92,CL,1547946000,82,-41.87,-73.83,59.0,5.82
137,Krasnomayskiy,90,RU,1547947800,79,55.0,82.52,24.8,11.18
138,Ostersund,0,SE,1547947200,85,63.18,14.64,19.4,12.75
139,Poshekhonye,68,RU,1547949667,84,58.5,39.12,13.86,9.75
140,San Cristobal,75,EC,1547946000,100,-0.39,-78.55,56.23,8.05
141,Tuktoyaktuk,75,CA,1547948640,77,69.44,-133.03,-2.21,11.41
142,Itarema,32,BR,1547949668,96,-2.92,-39.92,76.19,4.94
143,Souillac,100,FR,1547947800,100,45.6,-0.6,41.99,3.36
144,Fernie,75,CA,1547946000,100,49.5,-115.06,28.4,2.04
145,Samoylovka,56,RU,1547949669,90,51.19,43.71,17.01,9.42
146,Mecca,0,SA,1547949630,83,21.43,39.83,52.74,3.38
147,Grand Gaube,75,MU,1547946000,88,-20.01,57.66,77.0,3.36
148,Georgetown,40,GY,1547946000,94,6.8,-58.16,75.2,6.93
149,Tiksi,12,RU,1547949670,0,71.64,128.87,-45.09,2.59
150,Bambous Virieux,75,MU,1547946000,88,-20.34,57.76,77.0,3.36
151,Vyborg,90,RU,1547947200,92,60.71,28.74,19.4,9.17
152,Mayo,90,CA,1547946000,84,63.59,-135.9,-0.41,2.59
153,Imbituba,75,BR,1547946000,83,-28.24,-48.67,73.4,16.11
154,Cherskiy,8,RU,1547949671,58,68.75,161.3,-32.67,2.71
155,Sept-Iles,5,CA,1547946000,55,50.2,-66.38,-20.21,9.17
156,Pimentel,88,BR,1547949672,96,-3.7,-45.5,73.94,3.38
157,Gayny,0,RU,1547949672,72,60.3,54.33,3.51,4.83
158,Provideniya,88,RU,1547949672,100,64.42,-173.23,14.18,3.83
159,Galesong,20,ID,1547947800,88,-5.32,119.37,82.4,3.36
160,Neyshabur,64,IR,1547949673,84,36.21,58.79,18.68,3.6
161,Iqaluit,20,CA,1547946000,67,63.75,-68.52,-22.01,2.24
162,Kargil,80,PK,1547949761,80,34.56,76.13,-0.27,1.59
163,Leninskoye,90,RU,1547947800,79,54.82,82.85,24.8,11.18
164,Otavi,44,NA,1547949676,92,-19.64,17.34,62.01,3.15
165,Caravelas,44,BR,1547949764,100,-17.73,-39.27,81.14,16.69
166,Ilulissat,76,GL,1547945400,84,69.22,-51.1,3.2,17.22
167,Fort Nelson,75,CA,1547946000,77,58.81,-122.69,-0.41,3.15
168,Ust-Koksa,44,RU,1547949677,54,50.27,85.62,-8.51,1.92
169,Williams Lake,75,CA,1547946000,51,52.13,-122.14,37.4,9.17
170,Moron,68,VE,1547949678,93,10.49,-68.2,67.23,2.93
171,Hithadhoo,88,MV,1547949678,100,-0.6,73.08,79.38,5.5
172,Haverfordwest,76,GB,1547945400,100,51.8,-4.97,42.8,5.82
173,Corinto,0,BR,1547949679,68,-18.36,-44.46,71.64,4.94
174,Poplar Bluff,90,US,1547949300,71,36.76,-90.39,30.29,20.8
175,Miandrivazo,80,MG,1547949679,95,-19.53,45.46,72.36,2.93
176,La Ronge,40,CA,1547946000,67,55.1,-105.3,-22.01,4.7
177,Vanavara,36,RU,1547949680,73,60.35,102.28,13.64,7.74
178,Smithers,90,CA,1547946000,69,54.78,-127.17,37.4,5.82
179,Marsabit,0,KE,1547949681,78,2.34,37.99,64.04,2.59
180,Taft,92,PH,1547949681,100,11.9,125.42,76.28,20.94
181,Campbell River,40,CA,1547946000,93,50.02,-125.24,42.96,3.36
182,Sandwick,90,GB,1547945400,96,54.57,-2.89,32.0,3.36
183,Roshal,76,RU,1547949682,80,55.66,39.88,15.21,9.86
184,Airai,80,TL,1547949682,83,-8.93,125.41,78.62,2.04
185,Silchar,0,IN,1547949682,74,24.83,92.8,62.64,3.04
186,Umm Lajj,0,SA,1547949683,100,25.02,37.27,54.36,3.71
187,Yangambi,48,CD,1547949683,88,0.77,24.47,73.44,3.94
188,Ende,32,ID,1547949684,100,-8.84,121.65,82.31,8.75
189,Trinidad,8,UY,1547949684,69,-33.52,-56.9,63.95,10.65
190,Fortuna,75,ES,1547947800,93,38.18,-1.13,50.0,0.69
191,Lar,0,IR,1547946000,60,27.66,54.32,39.2,2.26
192,Palmer,0,AU,1547947800,33,-34.85,139.16,77.0,9.17
193,Corinth,40,GR,1547949000,93,37.94,22.93,46.4,3.36
194,Narsaq,64,GL,1547945400,72,60.91,-46.05,17.6,5.82
195,San Quintin,0,PH,1547949686,69,17.54,120.52,79.83,3.27
196,Santiago de Cao,75,PE,1547946000,83,-7.96,-79.24,71.6,9.17
197,Brus Laguna,56,HN,1547949687,89,15.75,-84.48,73.22,0.47
198,Coldwater,75,US,1547949300,72,41.94,-85.0,16.12,11.41
199,Mar del Plata,0,AR,1547949647,30,-46.43,-67.52,76.28,19.26
200,Opuwo,64,NA,1547949687,64,-18.06,13.84,62.01,2.59
201,Lata,44,IN,1547949688,72,30.78,78.62,36.05,2.71
202,Puerto Narino,0,CO,1547946000,100,-3.77,-70.38,73.4,2.82
203,Port Hardy,75,CA,1547946000,93,50.7,-127.42,41.0,2.24
204,Carnarvon,0,ZA,1547949689,53,-30.97,22.13,48.06,10.76
205,Dwarka,40,IN,1547947800,93,28.58,77.04,50.0,2.37
206,Vardo,90,US,1547948100,88,39.62,-77.74,33.53,8.05
207,Luganville,36,VU,1547949690,98,-15.51,167.18,84.29,10.54
208,Kamina,88,CD,1547949690,100,-8.74,25.0,64.94,3.6
209,Lakatoro,48,VU,1547949690,86,-16.11,167.42,84.51,9.19
210,Pitimbu,20,BR,1547946000,88,-7.47,-34.81,78.8,8.05
211,Kamennomostskiy,64,RU,1547949691,87,44.29,40.18,27.14,1.59
212,Beringovskiy,80,RU,1547949691,100,63.05,179.32,2.84,6.96
213,Sandanski,92,BG,1547949692,78,41.57,23.28,25.52,1.92
214,Katobu,20,ID,1547949692,89,-4.94,122.53,84.78,3.94
215,Vesoul,0,FR,1547947800,85,47.62,6.16,32.0,5.82
216,Thinadhoo,88,MV,1547949692,100,0.53,72.93,81.05,9.98
217,Lebu,0,ET,1547949497,77,8.96,38.73,35.06,2.59
218,Kasongo-Lunda,76,CD,1547949692,99,-6.48,16.82,68.94,2.04
219,Torbay,5,CA,1547946000,72,47.66,-52.73,17.6,14.99
220,Normandin,20,CA,1547946000,66,48.84,-72.53,-29.21,2.24
221,Honiara,56,SB,1547949693,84,-9.43,159.96,82.94,3.38
222,Xihua,32,CN,1547949694,66,33.79,114.53,37.53,6.06
223,Upernavik,32,GL,1547949694,100,72.79,-56.15,-9.41,5.17
224,Bondo,8,CD,1547949694,77,3.81,23.69,71.51,2.82
225,Bastos,20,BR,1547949694,91,-21.92,-50.73,73.71,2.71
226,Carutapera,76,BR,1547949695,95,-1.2,-46.02,77.63,6.06
227,Kahului,40,US,1547945760,62,20.89,-156.47,77.13,18.34
228,San Luis,0,AR,1547949600,36,-33.3,-66.34,73.76,14.23
229,Matadi,36,CD,1547949696,100,-5.83,13.46,73.04,2.48
230,Ankang,44,CN,1547949696,46,32.73,108.99,37.26,2.59
231,Taganak,75,PH,1547946000,79,6.08,118.3,84.2,6.93
232,Geraldton,5,CA,1547946000,67,49.72,-86.95,-22.01,4.7
233,Kavaratti,0,IN,1547949697,100,10.57,72.64,81.36,3.15
234,Port Shepstone,68,ZA,1547949697,94,-30.74,30.45,66.29,13.89
235,La Reforma,40,GT,1547944800,83,14.8,-91.82,78.8,5.82
236,Charters Towers,48,AU,1547949419,72,-20.07,146.27,84.06,12.1
237,Severo-Kurilsk,88,RU,1547949699,97,50.68,156.12,33.26,17.69
238,Batemans Bay,0,AU,1547949524,72,-35.71,150.18,78.26,5.5
239,Sholokhovskiy,0,RU,1547949699,83,48.28,41.05,9.77,4.38
240,Xining,76,CN,1547949642,73,36.62,101.77,10.76,2.59
241,Berkakit,12,RU,1547949700,55,56.58,124.77,-21.2,2.93
242,Puerto Morazan,12,NI,1547949700,53,12.85,-87.17,80.73,9.98
243,Phan Thiet,0,VN,1547949700,83,10.93,108.1,80.96,14.9
244,Sheltozero,68,RU,1547949701,85,61.37,35.37,13.86,3.15
245,Sabang,92,PH,1547949701,100,13.72,123.58,75.2,17.02
246,Khani,40,GE,1547947800,76,41.96,42.96,32.0,3.36
247,Freeport,8,BS,1547949487,99,26.54,-78.7,75.29,14.45
248,Banda Aceh,56,ID,1547949702,90,5.56,95.32,79.25,4.94
249,Avarua,75,CK,1547946000,83,-21.21,-159.78,82.4,4.7
250,Kindu,64,CD,1547949702,99,-2.95,25.92,70.74,2.82
251,Lermontovka,64,RU,1547949703,74,47.15,134.34,5.54,7.74
252,Vestmannaeyjar,20,IS,1547949691,100,63.44,-20.27,35.69,18.81
253,Necochea,0,AR,1547949644,76,-38.55,-58.74,63.05,13.0
254,Udachnyy,76,RU,1547949703,71,66.42,112.4,-11.66,2.93
255,Oriximina,68,BR,1547949703,100,-1.77,-55.87,73.26,3.71
256,Ahipara,92,NZ,1547949704,87,-35.17,173.16,71.51,10.98
257,Trindade,0,BR,1547946000,69,-16.66,-49.49,77.0,3.36
258,Kazachinskoye,68,RU,1547949704,85,57.69,93.28,21.65,6.4
259,Belmonte,68,PT,1547949456,96,40.36,-7.35,39.47,2.59
260,Carupano,44,VE,1547949705,88,10.67,-63.26,77.09,13.11
261,Kitui,0,KE,1547949705,83,-1.37,38.02,56.75,3.38
262,Isangel,92,VU,1547949705,100,-19.55,169.27,78.84,18.7
263,Victoria,75,BN,1547947800,83,5.28,115.24,84.2,2.24
264,Micheweni,0,TZ,1547949706,100,-4.97,39.83,81.05,10.98
265,Port-Gentil,20,GA,1547949706,97,-0.72,8.78,79.7,4.83
266,Wattegama,36,LK,1547949707,81,7.35,80.68,69.21,5.39
267,Balkhash,8,KZ,1547949707,78,46.84,74.98,16.79,12.21
268,Ostrovnoy,0,RU,1547949707,77,68.05,39.51,-12.65,2.82
269,Fenoarivo,75,MG,1547947800,93,-18.93,47.44,66.2,3.36
270,Yerbogachen,64,RU,1547949708,71,61.28,108.01,14.04,9.31
271,Lima,75,PE,1547946000,88,-12.06,-77.04,69.8,13.87
272,Saint Anthony,90,US,1547947920,91,43.97,-111.68,32.27,5.82
273,Swift Current,40,CA,1547947080,85,50.29,-107.8,10.4,18.34
274,Bontang,12,ID,1547949709,88,0.12,117.47,85.01,6.96
275,Namibe,88,AO,1547949709,100,-15.19,12.15,74.79,2.71
276,Harrismith,88,ZA,1547949709,89,-28.27,29.13,49.28,6.62
277,Paamiut,80,GL,1547949710,100,61.99,-49.67,27.59,19.26
278,Broken Hill,92,AU,1547946000,18,-31.97,141.45,82.4,18.34
279,Izumo,75,JP,1547946000,81,35.37,132.75,47.21,12.75
280,Namatanai,92,PG,1547949710,100,-3.66,152.44,80.64,16.58
281,Cedar City,1,US,1547945580,61,37.68,-113.06,41.0,3.36
282,Marrakesh,40,MA,1547947800,81,31.63,-7.99,50.0,5.82
283,Muzhi,0,RU,1547949711,55,65.4,64.7,-11.16,3.6
284,Polunochnoye,36,RU,1547949711,68,60.87,60.43,9.5,3.83
285,Pitsunda,90,GE,1547947800,75,43.16,40.34,41.0,8.95
286,Ust-Uda,12,RU,1547949712,66,54.17,103.03,1.89,2.37
287,Clyde River,1,CA,1547946000,74,70.47,-68.59,-25.61,3.36
288,Monticello,1,US,1547948700,49,45.31,-93.79,0.63,7.63
289,Sao Miguel do Araguaia,36,BR,1547949712,93,-13.28,-50.16,75.96,3.49
290,Laguna,5,MX,1547945100,49,27.52,-110.01,71.6,6.93
291,Dubuque,1,US,1547948160,77,42.5,-90.66,10.76,8.05
292,Tabas,0,IR,1547949713,73,33.6,56.92,23.09,2.37
293,Constitucion,20,MX,1547944860,30,23.99,-104.67,55.4,6.93
294,General Roca,0,AR,1547946000,25,-39.03,-67.58,87.8,6.93
295,Harboore,68,DK,1547947200,92,56.62,8.18,30.2,4.7
296,Buta,76,CD,1547949715,76,2.79,24.73,74.75,1.92
297,Aginskoye,0,RU,1547949715,38,51.11,114.54,21.33,14.45
298,Maralal,0,KE,1547949715,95,1.1,36.7,46.53,2.59
299,Maniwaki,88,CA,1547949715,60,46.38,-75.98,-7.11,4.61
300,Margate,75,AU,1547947800,31,-43.03,147.26,78.8,12.75
301,Lorengau,80,PG,1547949716,100,-2.02,147.27,81.09,11.21
302,Bonavista,8,CA,1547949716,100,48.65,-53.11,16.34,20.15
303,Turukhansk,56,RU,1547949716,81,65.8,87.96,5.9,9.19
304,Guerrero Negro,0,MX,1547949716,44,27.97,-114.04,61.16,9.19
305,Alice Springs,20,AU,1547947800,14,-23.7,133.88,102.2,17.22
306,Panaba,92,MX,1547949717,65,21.28,-88.27,77.94,6.4
307,Yenagoa,0,NG,1547949717,94,4.92,6.26,74.88,6.06
308,Kudymkar,0,RU,1547949717,67,59.01,54.66,-1.22,3.27
309,Rovaniemi,0,FI,1547947200,83,66.5,25.72,-4.01,6.93
310,Palauig,32,PH,1547949717,71,15.44,119.9,83.34,5.28
311,Sibolga,44,ID,1547949718,96,1.74,98.78,74.48,2.15
312,Vostok,64,RU,1547949718,64,46.45,135.83,1.98,3.15
313,Khudat,8,AZ,1547949718,76,41.63,48.68,19.58,2.71
314,Torrington,1,US,1547949180,54,42.06,-104.18,38.53,11.41
315,Tasiilaq,8,GL,1547945400,79,65.61,-37.64,24.8,6.93
316,The Valley,20,AI,1547946000,69,18.22,-63.06,77.0,8.05
317,Kruisfontein,0,ZA,1547949720,91,-34.0,24.73,58.68,7.63
318,Ucluelet,75,CA,1547946000,76,48.94,-125.55,48.2,8.05
319,Agdam,8,AZ,1547949720,58,39.99,46.93,18.18,2.59
320,Sao Gabriel da Cachoeira,36,BR,1547949616,94,-0.13,-67.09,74.39,1.7
321,Havre-Saint-Pierre,20,CA,1547946000,51,50.23,-63.6,-16.61,6.93
322,Sosnovo-Ozerskoye,48,RU,1547949721,64,52.53,111.54,10.89,10.76
323,Rocha,44,UY,1547949503,75,-34.48,-54.34,60.84,6.85
324,Port Moresby,75,PG,1547946000,66,-9.47,147.16,86.0,12.75
325,Arman,88,RU,1547949721,66,59.7,150.17,1.67,6.17
326,Zhezkazgan,90,KZ,1547947800,92,47.8,67.71,21.2,8.95
327,Lompoc,1,US,1547945760,65,34.64,-120.46,65.05,10.29
328,Mandurah,0,AU,1547947800,20,-32.55,115.7,98.6,18.34
329,Luce,1,US,1547948100,63,46.66,-95.65,-6.53,3.36
330,Tazovskiy,56,RU,1547949484,85,67.47,78.7,4.86,11.99
331,Kolhapur,0,IN,1547949723,83,16.7,74.24,63.86,3.6
332,Zaysan,0,KZ,1547949724,73,47.47,84.87,-1.49,5.17
333,Alangayam,12,IN,1547949724,91,12.62,78.75,62.15,4.05
334,Sao Filipe,8,CV,1547949725,97,14.9,-24.5,71.01,17.02
335,Nizhnevartovsk,90,RU,1547947800,85,60.93,76.58,19.4,11.18
336,Tanhacu,20,BR,1547949573,91,-14.02,-41.25,66.92,3.94
337,Kununurra,0,AU,1547947800,56,-15.77,128.74,93.2,4.7
338,Nanortalik,20,GL,1547949725,91,60.14,-45.24,23.99,12.44
339,Kamenka,76,RU,1547949726,89,53.19,44.05,20.48,11.65
340,Batagay-Alyta,56,RU,1547949726,0,67.8,130.41,-43.56,2.71
341,Bilibino,0,RU,1547949726,82,68.06,166.44,-39.83,3.15
342,Tarko-Sale,8,RU,1547949727,59,64.92,77.78,-6.8,3.15
343,Harper,1,US,1547949060,53,30.3,-99.24,44.85,3.36
344,Sur,12,OM,1547949727,100,22.57,59.53,69.71,11.32
345,Awjilah,92,LY,1547949728,39,29.14,21.3,51.62,2.82
346,Guaraniacu,80,BR,1547949728,95,-25.1,-52.88,71.78,2.26
347,Mount Gambier,0,AU,1547946000,57,-37.83,140.78,75.2,10.29
348,Palana,32,RU,1547949728,75,59.08,159.95,29.16,10.65
349,Bandarbeyla,92,SO,1547949729,100,9.49,50.81,75.38,16.02
350,Bonthe,0,SL,1547949729,99,7.53,-12.5,77.18,3.38
351,Jodhpur,32,IN,1547949729,67,26.3,73.04,56.34,2.93
352,Alekseyevsk,80,RU,1547949730,73,57.84,108.35,18.18,7.52
353,Ust-Maya,32,RU,1547949730,75,60.42,134.54,-37.76,3.38
354,Fairbanks,90,US,1547947920,84,64.84,-147.72,-1.16,3.04
355,Broome,0,GB,1547947200,100,52.47,1.45,28.15,2.24
356,Morant Bay,20,JM,1547946000,54,17.88,-76.41,80.6,11.41
357,Turka,64,UA,1547949731,69,49.16,23.03,12.33,2.48
358,Labuhan,48,ID,1547949731,85,-2.54,115.51,82.4,3.15
359,Saint-Georges,76,CA,1547949731,57,46.12,-70.67,-1.62,3.15
360,Karabash,92,RU,1547949731,83,55.49,60.21,13.37,3.6
361,Pareora,0,NZ,1547949732,70,-44.49,171.21,66.38,18.59
362,Mareeba,40,AU,1547947800,66,-16.99,145.42,86.0,18.34
363,Iskateley,80,RU,1547949732,80,67.68,53.15,10.49,3.04
364,Emmett,90,US,1547949300,100,43.87,-116.5,41.65,6.93
365,Hawera,0,NZ,1547949732,85,-39.59,174.28,66.2,21.39
366,Shaoguan,92,CN,1547949733,100,24.81,113.59,53.15,3.27
367,Praia da Vitoria,20,PT,1547946000,93,38.73,-27.07,53.6,7.4
368,Hai Duong,75,VN,1547947800,94,20.94,106.32,66.11,8.05
369,East London,92,ZA,1547949733,100,-33.02,27.91,64.13,10.54
370,Panacan,90,PH,1547946000,100,7.15,125.66,77.0,9.17
371,Dondaicha,0,IN,1547949734,65,21.33,74.56,58.82,3.6
372,Puerto El Triunfo,0,SV,1547945400,83,13.27,-88.55,75.2,3.36
373,Orbetello,0,IT,1547945700,86,42.44,11.21,39.2,6.93
374,Huron,90,US,1547949180,62,44.36,-98.21,0.88,6.93
375,Hami,56,CN,1547949735,81,42.84,93.51,18.32,0.69
376,Araouane,0,ML,1547949735,37,18.9,-3.53,42.21,6.4
377,Killin,90,US,1547949180,75,33.61,-91.74,34.3,11.41
378,Nancha,20,CN,1547949736,56,47.14,129.26,2.03,6.62
379,Krasnoarmeysk,0,RU,1547947800,92,56.12,38.15,19.4,11.18
380,Canon City,12,US,1547949737,73,39.46,-117.13,29.61,3.38
381,Bunia,48,CD,1547949737,85,1.56,30.25,63.59,1.59
382,Half Moon Bay,75,US,1547949180,67,37.46,-122.43,62.19,4.7
383,Nakodar,92,IN,1547949737,90,31.13,75.48,49.55,2.93
384,Bijar,32,IR,1547949737,64,35.87,47.6,6.66,2.93
385,Sechura,0,PE,1547949738,86,-5.56,-80.82,73.44,8.41
386,San Patricio,44,PY,1547949738,79,-26.98,-56.83,72.05,5.95
387,Chotila,0,IN,1547949738,73,22.42,71.2,56.43,2.59
388,Fuzhou,75,CN,1547946000,87,26.08,119.3,55.4,17.9
389,Ponta do Sol,36,BR,1547949739,93,-20.63,-46.0,67.46,1.25
390,Hervey Bay,40,AU,1547946000,51,-25.3,152.85,86.0,17.22
391,Banswara,0,IN,1547949739,47,23.55,74.45,59.04,8.19
392,Vung Tau,8,VN,1547949739,90,10.35,107.08,80.91,17.81
393,Okhotsk,64,RU,1547949740,100,59.36,143.24,-7.43,11.65
394,Atbasar,76,KZ,1547949740,89,51.81,68.36,25.34,9.42
395,Saint-Pierre,92,FR,1547947800,80,48.95,4.24,33.85,9.17
396,Axim,24,GH,1547949741,100,4.87,-2.24,81.63,7.63
397,Makakilo City,40,US,1547945820,56,21.35,-158.09,79.68,9.17
398,Pekan,75,MY,1547946000,88,3.49,103.39,77.0,6.93
399,Lasa,44,CY,1547947800,81,34.92,32.53,51.69,5.82
400,Bathsheba,75,BB,1547946000,73,13.22,-59.52,77.0,11.41
401,Flin Flon,0,CA,1547949742,42,54.77,-101.88,-27.23,5.5
402,Bintulu,75,MY,1547946000,94,3.17,113.03,77.0,4.7
403,Athabasca,92,CA,1547949646,83,54.72,-113.29,4.14,9.53
404,Nelson Bay,90,AU,1547947800,78,-32.72,152.14,77.0,12.75
405,Dunedin,68,NZ,1547949675,56,-45.87,170.5,65.88,20.71
406,Pilar,0,AR,1547946000,64,-34.46,-58.91,68.56,6.93
407,Guymon,1,US,1547948100,99,36.68,-101.48,28.78,10.29
408,Carahue,90,CL,1547946000,100,-38.71,-73.16,53.6,9.17
409,Burnie,0,AU,1547949744,84,-41.05,145.91,69.17,14.34
410,Madison,1,US,1547949300,79,43.07,-89.38,10.33,4.7
411,Shimoda,75,JP,1547946000,58,34.7,138.93,53.42,10.29
412,Aguimes,75,ES,1547947800,67,27.91,-15.45,62.6,12.75
413,Sorland,76,NO,1547949745,100,67.67,12.69,35.33,19.26
414,Springbok,0,ZA,1547949745,46,-29.67,17.88,49.19,5.06
415,Bluefields,0,NI,1547949745,86,12.01,-83.77,72.99,3.04
416,Ashland,90,US,1547948160,100,38.48,-82.64,46.56,5.82
417,Sao Felix do Xingu,92,BR,1547949529,98,-6.64,-51.99,70.25,1.7
418,Chiang Rai,20,TH,1547946000,100,19.9,99.84,64.4,2.93
419,Turan,20,RU,1547949746,74,52.15,93.92,-19.49,2.04
420,Vila Franca do Campo,20,PT,1547946000,82,37.72,-25.43,55.4,9.17
421,Nuuk,80,GL,1547945400,85,64.17,-51.74,19.4,16.11
422,Bratslav,0,UA,1547947800,85,48.83,28.94,17.6,6.71
423,Gull Lake,40,CA,1547947080,85,50.1,-108.48,10.4,18.34
424,Anloga,20,GH,1547946000,83,5.79,0.9,82.4,6.93
425,Vryburg,0,ZA,1547949747,26,-26.96,24.73,56.16,9.64
426,Touros,20,BR,1547946000,83,-5.2,-35.46,82.4,10.29
427,Rome,75,IT,1547947200,81,41.89,12.48,43.5,5.82
428,Adre,0,TD,1547949748,48,13.47,22.2,53.91,5.61
429,Galle,1,US,1547949180,47,29.74,-97.91,47.98,6.93
430,Marsh Harbour,0,BS,1547949749,100,26.54,-77.06,73.67,12.66
431,Kerrobert,90,CA,1547946720,84,51.92,-109.14,5.0,16.11
432,Zaozerne,68,UA,1547949749,88,51.37,23.94,23.13,3.6
433,Hamilton,75,BM,1547945700,87,32.3,-64.78,60.8,4.7
434,Borogontsy,44,RU,1547949749,76,62.67,131.17,-38.03,4.61
435,Urla,75,TR,1547947200,87,38.32,26.77,39.47,1.12
436,Pirovskoye,64,RU,1547949750,84,57.63,92.27,20.88,6.96
437,Hambantota,75,LK,1547946600,100,6.12,81.12,68.0,5.82
438,Vao,68,EE,1547949751,83,59.1,26.19,24.44,17.36
439,Mogadishu,0,SO,1547949751,100,2.04,45.34,78.26,23.17
440,Macusani,44,PE,1547949751,100,-14.07,-70.43,51.17,1.7
441,Luanda,75,AO,1547946000,83,-8.83,13.24,78.8,4.7
442,Inhambane,100,MZ,1547949751,100,-23.87,35.38,76.19,35.48
443,Chimore,92,BO,1547949752,96,-16.98,-65.13,69.98,2.59
444,Nosivka,76,UA,1547949752,85,50.94,31.58,18.41,5.61
445,Cockburn Town,0,TC,1547949752,100,21.46,-71.14,78.39,19.26
446,Ulaanbaatar,0,MN,1547947800,68,47.92,106.92,-14.81,2.24
447,Riverton,1,US,1547949180,68,43.02,-108.38,26.37,10.29
448,Providencia,68,CO,1547949753,97,1.24,-77.6,53.51,2.15
449,Gat,0,SN,1547947800,48,14.69,-16.54,66.2,13.87
450,Sungaipenuh,64,ID,1547949754,88,-2.08,101.38,71.24,1.59
451,Ginir,0,ET,1547949754,61,7.14,40.71,45.09,2.59
452,Atar,0,MR,1547949754,60,20.52,-13.05,45.68,6.51
453,Hede,0,SE,1547947200,72,60.45,15.49,17.6,10.29
454,Klyuchi,88,RU,1547949754,89,52.25,79.17,24.03,11.43
455,Pangnirtung,12,CA,1547949755,59,66.15,-65.72,-33.53,3.38
456,Shibata,75,JP,1547946000,100,37.91,139.43,37.4,9.17
457,Mamlyutka,40,KZ,1547947800,92,54.94,68.54,6.8,6.71
458,Sonoita,1,US,1547945880,19,31.68,-110.66,57.97,8.05
459,Hearst,20,CA,1547949755,66,49.69,-83.67,-22.46,4.83
460,Poopo,32,BO,1547949756,100,-18.38,-66.97,49.86,7.4
461,Menomonie,1,US,1547949300,58,44.88,-91.92,3.81,11.41
462,Dongsheng,88,CN,1547949756,84,29.72,112.52,41.45,12.77
463,Kaili,12,ID,1547949756,66,-3.46,120.21,83.16,2.04
464,Houma,56,CN,1547949757,45,35.63,111.36,32.13,3.38
465,Papara,0,BR,1547946000,100,-3.98,-38.73,77.0,3.36
466,Novikovo,44,UA,1547949757,100,45.05,34.56,26.15,3.38
467,Esfahan,0,IR,1547947800,73,32.66,51.68,21.2,4.7
468,Elko,75,US,1547945760,67,40.83,-115.76,46.04,5.82
469,Tuatapere,92,NZ,1547949758,100,-46.13,167.69,55.53,28.66
470,Sompeta,0,IN,1547949758,66,18.93,84.6,68.54,5.5
471,Kavieng,92,PG,1547949638,100,-2.57,150.8,77.76,9.53
472,Zhangjiakou,0,CN,1547949759,43,40.77,114.88,12.96,9.19
473,Bogorodskoye,8,RU,1547949759,68,52.37,140.44,-1.44,3.38
474,Olinda,75,EC,1547946000,78,-2.03,-79.75,78.8,6.93
475,Marzuq,0,YE,1547949759,86,14.4,46.47,42.62,2.26
476,Eenhana,76,NA,1547949760,94,-17.48,16.34,65.75,4.5
477,Port Macquarie,90,AU,1547947800,74,-31.43,152.91,81.86,11.41
478,Leningradskiy,32,RU,1547949760,99,69.38,178.42,-8.51,16.69
479,Natitingou,92,BJ,1547949760,82,10.31,1.38,72.86,4.38
480,Kijang,0,KR,1547946000,42,35.24,129.21,42.8,11.41
481,Qaqortoq,68,GL,1547945400,72,60.72,-46.03,17.6,5.82
482,Westport,92,IE,1547949761,100,53.8,-9.52,44.6,17.13
483,Manicore,80,BR,1547949761,94,-5.81,-61.3,75.11,2.71
484,Surt,44,LY,1547949761,100,31.21,16.59,54.36,5.95
485,Brownfield,1,US,1547948100,34,33.18,-102.27,42.31,5.82
486,Ketchikan,90,US,1547945760,85,55.34,-131.65,41.02,6.93
487,Rio Gallegos,40,AR,1547946000,36,-51.62,-69.22,62.6,11.41
488,Enkoping,0,SE,1547947200,67,59.64,17.08,20.32,3.36
489,Veraval,90,FR,1547947800,100,49.65,0.71,35.01,4.7
490,Luderitz,0,NA,1547949762,55,-26.65,15.16,61.97,15.23
491,Ormara,68,PK,1547949469,100,25.21,64.64,68.0,2.04
492,Berlevag,76,NO,1547949763,100,70.86,29.09,19.89,8.75
493,Yinchuan,68,CN,1547949763,58,38.48,106.21,16.74,2.59
494,Wanning,64,AT,1547947200,79,48.64,13.53,23.0,3.36
495,Julfa,20,AZ,1547947800,79,38.95,45.63,21.2,6.93
496,Baykit,48,RU,1547949764,74,61.68,96.39,10.98,9.19
497,Solnechnyy,56,RU,1547949764,70,50.72,136.64,-2.16,3.83
498,Sao Joao da Barra,8,BR,1547949652,96,-21.64,-41.05,81.09,29.89
499,Douglas,1,US,1547945760,19,31.34,-109.55,53.06,9.17
500,Dutlwe,0,BW,1547949765,31,-23.98,23.93,62.19,10.76
501,Robertsport,0,LR,1547949765,100,6.75,-11.37,81.36,5.61
502,Kenai,1,US,1547945760,80,60.55,-151.26,12.94,4.7
503,Kattivakkam,20,IN,1547947800,94,13.22,80.32,68.0,3.36
504,Almeirim,75,PT,1547946000,87,39.21,-8.63,54.5,16.11
505,Abnub,0,EG,1547946000,75,27.27,31.15,44.6,4.7
506,Skaudvile,92,LT,1547949766,95,55.42,22.62,31.55,15.9
507,Shenzhen,40,CN,1547947800,77,22.54,114.05,67.39,6.93
508,Longyearbyen,20,NO,1547945400,64,78.22,15.63,-2.21,6.93
509,Mezen,20,RU,1547949767,79,65.85,44.24,-4.37,4.16
510,Ust-Shonosha,76,RU,1547949767,80,61.15,41.34,11.88,10.42
511,Nalut,0,LY,1547949767,76,31.86,10.98,35.87,5.39
512,Jiuquan,44,CN,1547949768,72,39.73,98.49,12.24,3.04
513,Fraserburgh,90,GB,1547947200,100,57.69,-2.02,35.6,5.82
514,Senneterre,20,CA,1547946000,67,48.39,-77.24,-27.41,5.06
515,Srednekolymsk,8,RU,1547949634,73,67.46,153.71,-36.99,2.26
516,Yelniki,68,RU,1547949768,87,54.62,43.88,17.64,11.1
517,Siyabuswa,0,ZA,1547949769,80,-25.11,29.06,60.53,7.63
518,Semnan,75,IR,1547946000,86,35.58,53.39,30.2,2.93
519,Japura,20,ID,1547949770,65,-0.42,102.29,84.11,2.93
520,Pakxan,0,LA,1547949770,73,18.39,103.66,74.39,2.71
521,Reftinskiy,90,RU,1547947800,92,57.09,61.68,26.6,4.47
522,Porto Novo,40,BR,1547946000,78,-23.68,-45.44,77.0,2.24
523,Landsberg,0,DE,1547947200,79,51.53,12.16,17.33,6.93
524,Obo,0,CF,1547949771,65,5.39,26.49,61.83,5.95
525,Tateyama,75,JP,1547946000,75,36.66,137.31,44.6,10.29
526,Conde,80,BR,1547949772,89,-11.81,-37.61,78.71,7.18
527,Hanyang,12,CN,1547949772,51,32.14,105.51,42.17,3.94
528,Madang,92,PG,1547949772,100,-5.21,145.81,75.38,4.72
529,Santa Isabel,75,CO,1547946000,83,4.71,-75.1,75.2,5.82
530,Christchurch,0,NZ,1547947800,35,-43.53,172.64,73.4,16.11
531,Portage,90,US,1547949300,73,41.58,-87.18,23.29,16.11
